$GNGGA,063333.33,4012.1454536,N,11613.8033932,E,4,00,0.0,60.470,M,-8.418,M,0.0,0000*75
$GNGGA,063334.33,4012.1454539,N,11613.8033943,E,4,38,0.0,60.468,M,-8.418,M,0.0,0000*79
$GNGGA,063335.34,4012.1454525,N,11613.8033934,E,4,38,0.0,60.464,M,-8.418,M,0.0,0000*7E
$GNGGA,063336.34,4012.1454527,N,11613.8033935,E,4,38,0.0,60.466,M,-8.418,M,0.0,0000*7C
$GNGGA,063337.34,4012.1454520,N,11613.8033922,E,4,38,0.0,60.465,M,-8.418,M,0.0,0000*7F
$GNGGA,063338.34,4012.1454524,N,11613.8033937,E,4,38,0.0,60.469,M,-8.418,M,0.0,0000*7C
$GNGGA,063339.35,4012.1454522,N,11613.8033942,E,4,38,0.0,60.462,M,-8.418,M,0.0,0000*73
$GNGGA,063340.35,4012.1454525,N,11613.8033936,E,4,38,0.0,60.464,M,-8.418,M,0.0,0000*7F
$GNGGA,063341.35,4012.1454527,N,11613.8033939,E,4,38,0.0,60.466,M,-8.418,M,0.0,0000*71
$GNGGA,063342.35,4012.1454516,N,11613.8033939,E,4,38,0.0,60.462,M,-8.418,M,0.0,0000*74
$GNGGA,063343.36,4012.1454514,N,11613.8033924,E,4,38,0.0,60.460,M,-8.418,M,0.0,0000*7A
$GNGGA,063344.36,4012.1454511,N,11613.8033912,E,4,38,0.0,60.458,M,-8.418,M,0.0,0000*76
$GNGGA,063345.36,4012.1454505,N,11613.8033928,E,4,38,0.0,60.458,M,-8.418,M,0.0,0000*7B
$GNGGA,063346.37,4012.1454515,N,11613.8033928,E,4,38,0.0,60.461,M,-8.418,M,0.0,0000*72
$GNGGA,063347.37,4012.1454511,N,11613.8033926,E,4,38,0.0,60.459,M,-8.418,M,0.0,0000*72
$GNGGA,063348.37,4012.1454504,N,11613.8033912,E,4,38,0.0,60.460,M,-8.418,M,0.0,0000*74
$GNGGA,063349.38,4012.1454512,N,11613.8033932,E,4,38,0.0,60.461,M,-8.418,M,0.0,0000*7E
$GNGGA,063350.38,4012.1454513,N,11613.8033913,E,4,38,0.0,60.461,M,-8.418,M,0.0,0000*74
$GNGGA,063351.38,4012.1454514,N,11613.8033931,E,4,38,0.0,60.460,M,-8.418,M,0.0,0000*73
$GNGGA,063352.38,4012.1454506,N,11613.8033927,E,4,38,0.0,60.462,M,-8.418,M,0.0,0000*76
$GNGGA,063353.39,4012.1454506,N,11613.8033914,E,4,38,0.0,60.461,M,-8.418,M,0.0,0000*75
$GNGGA,063354.39,4012.1454514,N,11613.8033922,E,4,38,0.0,60.461,M,-8.418,M,0.0,0000*74
$GNGGA,063355.39,4012.1454506,N,11613.8033924,E,4,38,0.0,60.458,M,-8.418,M,0.0,0000*7A
$GNGGA,063356.40,4012.1454502,N,11613.8033925,E,4,38,0.0,60.458,M,-8.418,M,0.0,0000*72
$GNGGA,063357.40,4012.1454496,N,11613.8033919,E,4,38,0.0,60.459,M,-8.418,M,0.0,0000*71
$GNGGA,063358.40,4012.1454504,N,11613.8033930,E,4,38,0.0,60.462,M,-8.418,M,0.0,0000*77
$GNGGA,063359.40,4012.1454501,N,11613.8033916,E,4,38,0.0,60.461,M,-8.418,M,0.0,0000*74
$GNGGA,063400.41,4012.1454504,N,11613.8033912,E,4,38,0.0,60.458,M,-8.418,M,0.0,0000*75
$GNGGA,063401.41,4012.1454495,N,11613.8033910,E,4,38,0.0,60.457,M,-8.418,M,0.0,0000*70
$GNGGA,063402.41,4012.1454503,N,11613.8033911,E,4,38,0.0,60.453,M,-8.418,M,0.0,0000*78
$GNGGA,063403.41,4012.1454503,N,11613.8033917,E,4,38,0.0,60.459,M,-8.418,M,0.0,0000*75
$GNGGA,063404.42,4012.1454496,N,11613.8033917,E,4,38,0.0,60.460,M,-8.418,M,0.0,0000*76
$GNGGA,063405.42,4012.1454503,N,11613.8033921,E,4,38,0.0,60.457,M,-8.418,M,0.0,0000*7B
$GNGGA,063406.42,4012.1454507,N,11613.8034019,E,4,38,0.0,60.459,M,-8.418,M,0.0,0000*77
$GNGGA,063407.42,4012.1454671,N,11613.8036300,E,4,34,0.0,60.418,M,-8.418,M,0.0,0000*74
$GNGGA,063408.43,4012.1455315,N,11613.8044474,E,4,31,0.0,60.485,M,-8.418,M,0.0,0000*7C
$GNGGA,063409.43,4012.1457753,N,11613.8059895,E,4,31,0.0,60.432,M,-8.418,M,0.0,0000*7A
$GNGGA,063410.43,4012.1463175,N,11613.8079125,E,4,33,0.0,60.411,M,-8.418,M,0.0,0000*74
$GNGGA,063411.44,4012.1472389,N,11613.8104051,E,4,38,0.0,60.369,M,-8.417,M,0.0,0000*76
$GNGGA,063412.44,4012.1483060,N,11613.8134287,E,4,37,0.0,60.387,M,-8.417,M,0.0,0000*7A
$GNGGA,063413.44,4012.1492793,N,11613.8170085,E,4,38,0.0,60.407,M,-8.417,M,0.0,0000*70
$GNGGA,063414.45,4012.1499226,N,11613.8211221,E,4,32,0.0,60.489,M,-8.417,M,0.0,0000*72
$GNGGA,063415.45,4012.1502903,N,11613.8256838,E,4,34,0.0,60.419,M,-8.417,M,0.0,0000*72
$GNGGA,063416.45,4012.1504507,N,11613.8306385,E,4,36,0.0,60.388,M,-8.417,M,0.0,0000*7B
$GNGGA,063417.45,4012.1505435,N,11613.8360533,E,4,37,0.0,60.370,M,-8.417,M,0.0,0000*76
$GNGGA,063418.46,4012.1505959,N,11613.8419103,E,4,38,0.0,60.356,M,-8.416,M,0.0,0000*79
$GNGGA,063419.46,4012.1506207,N,11613.8481123,E,4,37,0.0,60.362,M,-8.416,M,0.0,0000*70
$GNGGA,063420.46,4012.1506604,N,11613.8541812,E,4,35,0.0,60.351,M,-8.416,M,0.0,0000*79
$GNGGA,063421.47,4012.1507225,N,11613.8600490,E,4,36,0.0,60.304,M,-8.416,M,0.0,0000*7C
$GNGGA,063422.47,4012.1507538,N,11613.8654005,E,4,38,0.0,60.280,M,-8.416,M,0.0,0000*7E
$GNGGA,063423.47,4012.1507317,N,11613.8700935,E,4,38,0.0,60.252,M,-8.415,M,0.0,0000*72
$GNGGA,063424.47,4012.1505490,N,11613.8739997,E,4,38,0.0,60.216,M,-8.415,M,0.0,0000*7D
$GNGGA,063425.48,4012.1498928,N,11613.8771815,E,4,38,0.0,60.186,M,-8.415,M,0.0,0000*75
$GNGGA,063426.48,4012.1484697,N,11613.8796835,E,4,38,0.0,60.144,M,-8.415,M,0.0,0000*75
$GNGGA,063427.48,4012.1464750,N,11613.8812794,E,4,38,0.0,60.111,M,-8.415,M,0.0,0000*77
$GNGGA,063428.48,4012.1438003,N,11613.8821734,E,4,36,0.0,60.094,M,-8.415,M,0.0,0000*78
$GNGGA,063429.49,4012.1404532,N,11613.8825549,E,4,34,0.0,60.090,M,-8.415,M,0.0,0000*7A
$GNGGA,063430.49,4012.1365593,N,11613.8826749,E,4,33,0.0,60.080,M,-8.415,M,0.0,0000*7E
$GNGGA,063431.49,4012.1321234,N,11613.8827307,E,4,32,0.0,60.061,M,-8.415,M,0.0,0000*74
$GNGGA,063432.50,4012.1272422,N,11613.8827762,E,4,32,0.0,60.035,M,-8.415,M,0.0,0000*7F
$GNGGA,063433.50,4012.1220613,N,11613.8827930,E,4,32,0.0,59.988,M,-8.415,M,0.0,0000*75
$GNGGA,063434.50,4012.1165754,N,11613.8827791,E,4,31,0.0,59.941,M,-8.415,M,0.0,0000*71
$GNGGA,063435.50,4012.1107826,N,11613.8827267,E,4,30,0.0,59.914,M,-8.415,M,0.0,0000*73
$GNGGA,063436.51,4012.1049171,N,11613.8826794,E,4,33,0.0,59.860,M,-8.415,M,0.0,0000*78
$GNGGA,063437.51,4012.0990897,N,11613.8827006,E,4,31,0.0,59.845,M,-8.416,M,0.0,0000*7F
$GNGGA,063438.51,4012.0934049,N,11613.8827101,E,4,31,0.0,59.805,M,-8.416,M,0.0,0000*77
$GNGGA,063439.52,4012.0882389,N,11613.8827071,E,4,33,0.0,59.737,M,-8.416,M,0.0,0000*7C
$GNGGA,063440.52,4012.0836645,N,11613.8826942,E,4,31,0.0,59.696,M,-8.416,M,0.0,0000*78
$GNGGA,063441.52,4012.0798561,N,11613.8826791,E,4,33,0.0,59.661,M,-8.416,M,0.0,0000*7D
$GNGGA,063442.52,4012.0769660,N,11613.8826304,E,4,32,0.0,59.620,M,-8.416,M,0.0,0000*7E
$GNGGA,063443.53,4012.0745700,N,11613.8825328,E,4,33,0.0,59.592,M,-8.416,M,0.0,0000*71
$GNGGA,063444.53,4012.0724625,N,11613.8820589,E,4,34,0.0,59.586,M,-8.416,M,0.0,0000*7D
$GNGGA,063445.53,4012.0706203,N,11613.8808040,E,4,34,0.0,59.583,M,-8.416,M,0.0,0000*73
$GNGGA,063446.53,4012.0690273,N,11613.8783299,E,4,34,0.0,59.595,M,-8.416,M,0.0,0000*74
$GNGGA,063447.54,4012.0680341,N,11613.8746202,E,4,36,0.0,59.597,M,-8.416,M,0.0,0000*78
$GNGGA,063448.54,4012.0676670,N,11613.8699198,E,4,35,0.0,59.626,M,-8.416,M,0.0,0000*70
$GNGGA,063449.54,4012.0675557,N,11613.8644094,E,4,35,0.0,59.649,M,-8.416,M,0.0,0000*70
$GNGGA,063450.55,4012.0674985,N,11613.8581576,E,4,37,0.0,59.659,M,-8.417,M,0.0,0000*7A
$GNGGA,063451.55,4012.0674741,N,11613.8511574,E,4,38,0.0,59.675,M,-8.417,M,0.0,0000*77
$GNGGA,063452.55,4012.0674623,N,11613.8436384,E,4,36,0.0,59.706,M,-8.417,M,0.0,0000*77
$GNGGA,063453.55,4012.0674343,N,11613.8354655,E,4,40,0.0,59.706,M,-8.417,M,0.0,0000*7E
$GNGGA,063454.56,4012.0673405,N,11613.8268270,E,4,40,0.0,59.751,M,-8.418,M,0.0,0000*78
$GNGGA,063455.56,4012.0672319,N,11613.8179529,E,4,40,0.0,59.772,M,-8.418,M,0.0,0000*7B
$GNGGA,063456.56,4012.0671342,N,11613.8089437,E,4,40,0.0,59.793,M,-8.418,M,0.0,0000*7A
$GNGGA,063457.57,4012.0670345,N,11613.7996968,E,4,39,0.0,59.829,M,-8.419,M,0.0,0000*72
$GNGGA,063458.57,4012.0669538,N,11613.7905530,E,4,39,0.0,59.834,M,-8.419,M,0.0,0000*7E
$GNGGA,063459.57,4012.0668969,N,11613.7814256,E,4,39,0.0,59.893,M,-8.419,M,0.0,0000*7D
$GNGGA,063500.58,4012.0668545,N,11613.7726517,E,4,37,0.0,59.921,M,-8.419,M,0.0,0000*77
$GNGGA,063501.58,4012.0668053,N,11613.7641420,E,4,36,0.0,59.951,M,-8.420,M,0.0,0000*7D
$GNGGA,063502.58,4012.0668051,N,11613.7560168,E,4,32,0.0,59.923,M,-8.420,M,0.0,0000*74
$GNGGA,063503.58,4012.0668720,N,11613.7488998,E,4,35,0.0,59.917,M,-8.420,M,0.0,0000*74
$GNGGA,063504.59,4012.0669387,N,11613.7429307,E,4,37,0.0,59.930,M,-8.420,M,0.0,0000*7A
$GNGGA,063505.59,4012.0669777,N,11613.7381482,E,4,38,0.0,59.929,M,-8.421,M,0.0,0000*79
$GNGGA,063506.59,4012.0669801,N,11613.7342754,E,4,38,0.0,59.926,M,-8.421,M,0.0,0000*7C
$GNGGA,063507.59,4012.0669595,N,11613.7309868,E,4,38,0.0,59.925,M,-8.421,M,0.0,0000*71
$GNGGA,063508.60,4012.0669220,N,11613.7285786,E,4,37,0.0,59.947,M,-8.421,M,0.0,0000*7C
$GNGGA,063509.60,4012.0668837,N,11613.7269901,E,4,38,0.0,59.950,M,-8.421,M,0.0,0000*7A
$GNGGA,063510.60,4012.0668538,N,11613.7258732,E,4,38,0.0,59.943,M,-8.421,M,0.0,0000*7E
$GNGGA,063511.61,4012.0668347,N,11613.7251551,E,4,39,0.0,59.950,M,-8.421,M,0.0,0000*7D
$GNGGA,063512.61,4012.0668219,N,11613.7245472,E,4,38,0.0,59.941,M,-8.421,M,0.0,0000*70
$GNGGA,063513.61,4012.0668102,N,11613.7240729,E,4,39,0.0,59.944,M,-8.421,M,0.0,0000*74
$GNGGA,063514.61,4012.0668043,N,11613.7237530,E,4,39,0.0,59.947,M,-8.421,M,0.0,0000*7E
$GNGGA,063515.62,4012.0667942,N,11613.7232441,E,4,39,0.0,59.950,M,-8.421,M,0.0,0000*7F
$GNGGA,063516.62,4012.0667664,N,11613.7219705,E,4,39,0.0,59.955,M,-8.421,M,0.0,0000*78
$GNGGA,063517.62,4012.0667398,N,11613.7197358,E,4,39,0.0,59.949,M,-8.421,M,0.0,0000*7B
$GNGGA,063518.63,4012.0667478,N,11613.7164961,E,4,38,0.0,59.962,M,-8.421,M,0.0,0000*78
$GNGGA,063519.63,4012.0668049,N,11613.7124310,E,4,38,0.0,59.976,M,-8.421,M,0.0,0000*7D
$GNGGA,063520.63,4012.0668792,N,11613.7077546,E,4,37,0.0,59.987,M,-8.422,M,0.0,0000*76
$GNGGA,063521.64,4012.0670011,N,11613.7029983,E,4,39,0.0,59.993,M,-8.422,M,0.0,0000*70
$GNGGA,063522.64,4012.0672122,N,11613.6985757,E,4,41,0.0,60.007,M,-8.422,M,0.0,0000*78
$GNGGA,063523.64,4012.0677136,N,11613.6947813,E,4,39,0.0,60.025,M,-8.422,M,0.0,0000*77
$GNGGA,063524.64,4012.0689240,N,11613.6916051,E,4,41,0.0,60.021,M,-8.422,M,0.0,0000*72
$GNGGA,063525.65,4012.0708789,N,11613.6893267,E,4,39,0.0,60.065,M,-8.422,M,0.0,0000*7E
$GNGGA,063526.65,4012.0735349,N,11613.6879255,E,4,38,0.0,60.103,M,-8.422,M,0.0,0000*7E
$GNGGA,063527.65,4012.0768950,N,11613.6871990,E,4,38,0.0,60.147,M,-8.422,M,0.0,0000*7F
$GNGGA,063528.65,4012.0807525,N,11613.6868170,E,4,39,0.0,60.176,M,-8.422,M,0.0,0000*75
$GNGGA,063529.66,4012.0849512,N,11613.6865555,E,4,40,0.0,60.227,M,-8.422,M,0.0,0000*7E
$GNGGA,063530.66,4012.0894187,N,11613.6863529,E,4,39,0.0,60.290,M,-8.422,M,0.0,0000*71
$GNGGA,063531.66,4012.0940264,N,11613.6861996,E,4,38,0.0,60.342,M,-8.422,M,0.0,0000*73
$GNGGA,063532.67,4012.0986568,N,11613.6860381,E,4,38,0.0,60.405,M,-8.422,M,0.0,0000*79
$GNGGA,063533.67,4012.1031195,N,11613.6858738,E,4,37,0.0,60.463,M,-8.422,M,0.0,0000*78
$GNGGA,063534.67,4012.1073386,N,11613.6857112,E,4,35,0.0,60.491,M,-8.422,M,0.0,0000*77
$GNGGA,063535.67,4012.1112894,N,11613.6855645,E,4,37,0.0,60.561,M,-8.422,M,0.0,0000*73
$GNGGA,063536.68,4012.1147767,N,11613.6854308,E,4,36,0.0,60.597,M,-8.422,M,0.0,0000*79
$GNGGA,063537.68,4012.1177591,N,11613.6853212,E,4,37,0.0,60.594,M,-8.422,M,0.0,0000*7F
$GNGGA,063538.68,4012.1204548,N,11613.6852207,E,4,37,0.0,60.621,M,-8.422,M,0.0,0000*7B
$GNGGA,063539.69,4012.1229681,N,11613.6851272,E,4,35,0.0,60.654,M,-8.422,M,0.0,0000*73
$GNGGA,063540.69,4012.1253452,N,11613.6850317,E,4,34,0.0,60.690,M,-8.422,M,0.0,0000*76
$GNGGA,063541.69,4012.1277291,N,11613.6849563,E,4,35,0.0,60.711,M,-8.422,M,0.0,0000*7C
$GNGGA,063542.69,4012.1305123,N,11613.6848891,E,4,35,0.0,60.742,M,-8.422,M,0.0,0000*76
$GNGGA,063543.70,4012.1337329,N,11613.6848300,E,4,35,0.0,60.766,M,-8.422,M,0.0,0000*73
$GNGGA,063544.70,4012.1371522,N,11613.6847600,E,4,36,0.0,60.811,M,-8.422,M,0.0,0000*7D
$GNGGA,063545.70,4012.1407594,N,11613.6846594,E,4,37,0.0,60.838,M,-8.422,M,0.0,0000*72
$GNGGA,063546.71,4012.1445008,N,11613.6845329,E,4,38,0.0,60.856,M,-8.422,M,0.0,0000*72
$GNGGA,063547.71,4012.1485596,N,11613.6844021,E,4,38,0.0,60.891,M,-8.422,M,0.0,0000*7C
$GNGGA,063548.71,4012.1528294,N,11613.6842654,E,4,38,0.0,60.923,M,-8.421,M,0.0,0000*79
$GNGGA,063549.71,4012.1573568,N,11613.6841245,E,4,37,0.0,60.956,M,-8.421,M,0.0,0000*78
$GNGGA,063550.72,4012.1621140,N,11613.6840078,E,4,38,0.0,61.039,M,-8.421,M,0.0,0000*7A
$GNGGA,063551.72,4012.1671470,N,11613.6838735,E,4,39,0.0,61.072,M,-8.421,M,0.0,0000*77
$GNGGA,063552.72,4012.1724241,N,11613.6837365,E,4,38,0.0,61.113,M,-8.421,M,0.0,0000*78
$GNGGA,063553.72,4012.1780138,N,11613.6835748,E,4,39,0.0,61.148,M,-8.421,M,0.0,0000*7C
$GNGGA,063554.73,4012.1837636,N,11613.6833748,E,4,39,0.0,61.176,M,-8.421,M,0.0,0000*7B
$GNGGA,063555.73,4012.1897197,N,11613.6831475,E,4,39,0.0,61.220,M,-8.421,M,0.0,0000*73
$GNGGA,063556.73,4012.1958964,N,11613.6829014,E,4,37,0.0,61.275,M,-8.421,M,0.0,0000*72
$GNGGA,063557.74,4012.2020801,N,11613.6826378,E,4,40,0.0,61.316,M,-8.421,M,0.0,0000*71
$GNGGA,063558.74,4012.2081427,N,11613.6823906,E,4,40,0.0,61.352,M,-8.421,M,0.0,0000*7B
$GNGGA,063559.74,4012.2143459,N,11613.6821785,E,4,40,0.0,61.396,M,-8.421,M,0.0,0000*73
$GNGGA,063600.74,4012.2206620,N,11613.6820021,E,4,38,0.0,61.424,M,-8.421,M,0.0,0000*7B
$GNGGA,063601.75,4012.2270418,N,11613.6818403,E,4,40,0.0,61.449,M,-8.421,M,0.0,0000*78
$GNGGA,063602.75,4012.2334701,N,11613.6816490,E,4,37,0.0,61.465,M,-8.421,M,0.0,0000*7B
$GNGGA,063603.75,4012.2399518,N,11613.6814344,E,4,38,0.0,61.506,M,-8.421,M,0.0,0000*70
$GNGGA,063604.76,4012.2465679,N,11613.6811949,E,4,35,0.0,61.580,M,-8.421,M,0.0,0000*75
$GNGGA,063605.76,4012.2532436,N,11613.6809413,E,4,39,0.0,61.627,M,-8.421,M,0.0,0000*77
$GNGGA,063606.76,4012.2600456,N,11613.6806616,E,4,39,0.0,61.661,M,-8.421,M,0.0,0000*7A
$GNGGA,063607.77,4012.2669142,N,11613.6803962,E,4,37,0.0,61.709,M,-8.421,M,0.0,0000*7D
$GNGGA,063608.77,4012.2737836,N,11613.6801584,E,4,38,0.0,61.771,M,-8.420,M,0.0,0000*75
$GNGGA,063609.77,4012.2805096,N,11613.6799431,E,4,37,0.0,61.803,M,-8.420,M,0.0,0000*7C
$GNGGA,063610.77,4012.2870382,N,11613.6797194,E,4,35,0.0,61.867,M,-8.420,M,0.0,0000*74
$GNGGA,063611.78,4012.2933804,N,11613.6794825,E,4,36,0.0,61.909,M,-8.420,M,0.0,0000*73
$GNGGA,063612.78,4012.2996580,N,11613.6792513,E,4,36,0.0,61.939,M,-8.420,M,0.0,0000*73
$GNGGA,063613.78,4012.3058686,N,11613.6790339,E,4,36,0.0,61.940,M,-8.420,M,0.0,0000*7F
$GNGGA,063614.78,4012.3121505,N,11613.6788107,E,4,35,0.0,61.998,M,-8.420,M,0.0,0000*7F
$GNGGA,063615.79,4012.3184236,N,11613.6785695,E,4,37,0.0,62.052,M,-8.420,M,0.0,0000*78
$GNGGA,063616.79,4012.3245563,N,11613.6783360,E,4,38,0.0,62.080,M,-8.420,M,0.0,0000*7B
$GNGGA,063617.79,4012.3304376,N,11613.6781145,E,4,36,0.0,62.114,M,-8.420,M,0.0,0000*79
$GNGGA,063618.80,4012.3357740,N,11613.6779205,E,4,34,0.0,62.137,M,-8.420,M,0.0,0000*74
$GNGGA,063619.80,4012.3402193,N,11613.6777626,E,4,35,0.0,62.174,M,-8.420,M,0.0,0000*77
$GNGGA,063620.80,4012.3437361,N,11613.6776255,E,4,36,0.0,62.210,M,-8.420,M,0.0,0000*77
$GNGGA,063621.80,4012.3467143,N,11613.6775169,E,4,38,0.0,62.220,M,-8.420,M,0.0,0000*73
$GNGGA,063622.81,4012.3493070,N,11613.6774265,E,4,37,0.0,62.242,M,-8.420,M,0.0,0000*7E
$GNGGA,063623.81,4012.3513354,N,11613.6773407,E,4,37,0.0,62.260,M,-8.420,M,0.0,0000*76
$GNGGA,063624.81,4012.3528800,N,11613.6772768,E,4,37,0.0,62.291,M,-8.420,M,0.0,0000*76
$GNGGA,063625.82,4012.3540587,N,11613.6772273,E,4,35,0.0,62.287,M,-8.420,M,0.0,0000*72
$GNGGA,063626.82,4012.3547385,N,11613.6771989,E,4,34,0.0,62.288,M,-8.420,M,0.0,0000*71
$GNGGA,063627.82,4012.3551541,N,11613.6771771,E,4,35,0.0,62.300,M,-8.420,M,0.0,0000*70
$GNGGA,063628.83,4012.3553884,N,11613.6771654,E,4,35,0.0,62.304,M,-8.420,M,0.0,0000*7A
$GNGGA,063629.83,4012.3554427,N,11613.6771649,E,4,35,0.0,62.293,M,-8.420,M,0.0,0000*7A
$GNGGA,063630.83,4012.3554416,N,11613.6771660,E,4,35,0.0,62.292,M,-8.420,M,0.0,0000*7A
$GNGGA,063631.83,4012.3554413,N,11613.6771643,E,4,35,0.0,62.294,M,-8.420,M,0.0,0000*79
$GNGGA,063632.84,4012.3554406,N,11613.6771642,E,4,38,0.0,62.296,M,-8.420,M,0.0,0000*77
$GNGGA,063633.84,4012.3554417,N,11613.6771643,E,4,39,0.0,62.298,M,-8.420,M,0.0,0000*78
$GNGGA,063634.84,4012.3554414,N,11613.6771642,E,4,38,0.0,62.295,M,-8.420,M,0.0,0000*71
$GNGGA,063635.84,4012.3554428,N,11613.6771630,E,4,39,0.0,62.297,M,-8.420,M,0.0,0000*79
$GNGGA,063636.85,4012.3554411,N,11613.6771640,E,4,37,0.0,62.294,M,-8.420,M,0.0,0000*7B
$GNGGA,063637.85,4012.3554370,N,11613.6771590,E,4,38,0.0,62.320,M,-8.420,M,0.0,0000*75
$GNGGA,063638.85,4012.3554411,N,11613.6771632,E,4,39,0.0,62.297,M,-8.420,M,0.0,0000*7D
$GNGGA,063639.86,4012.3554414,N,11613.6771642,E,4,40,0.0,62.296,M,-8.420,M,0.0,0000*72
$GNGGA,063640.86,4012.3554416,N,11613.6771637,E,4,39,0.0,62.297,M,-8.420,M,0.0,0000*73
$GNGGA,063641.86,4012.3554412,N,11613.6771627,E,4,39,0.0,62.298,M,-8.420,M,0.0,0000*78
$GNGGA,063642.86,4012.3554416,N,11613.6771643,E,4,39,0.0,62.296,M,-8.420,M,0.0,0000*73
$GNGGA,063643.87,4012.3554411,N,11613.6771643,E,4,40,0.0,62.297,M,-8.420,M,0.0,0000*7B
$GNGGA,063644.87,4012.3554407,N,11613.6771635,E,4,39,0.0,62.297,M,-8.420,M,0.0,0000*74
$GNGGA,063645.87,4012.3554415,N,11613.6771648,E,4,39,0.0,62.295,M,-8.420,M,0.0,0000*7E
$GNGGA,063646.88,4012.3554413,N,11613.6771635,E,4,39,0.0,62.298,M,-8.420,M,0.0,0000*73
$GNGGA,063647.88,4012.3554406,N,11613.6771640,E,4,38,0.0,62.297,M,-8.420,M,0.0,0000*7A
$GNGGA,063648.88,4012.3554408,N,11613.6771641,E,4,39,0.0,62.300,M,-8.420,M,0.0,0000*74
$GNGGA,063649.88,4012.3554405,N,11613.6771639,E,4,39,0.0,62.300,M,-8.420,M,0.0,0000*77
$GNGGA,063650.89,4012.3554408,N,11613.6771631,E,4,38,0.0,62.297,M,-8.420,M,0.0,0000*75
$GNGGA,063651.89,4012.3554411,N,11613.6771617,E,4,39,0.0,62.297,M,-8.420,M,0.0,0000*79
$GNGGA,063652.89,4012.3554408,N,11613.6771624,E,4,39,0.0,62.299,M,-8.420,M,0.0,0000*7C
$GNGGA,063653.90,4012.3554405,N,11613.6771617,E,4,39,0.0,62.303,M,-8.420,M,0.0,0000*7A
$GNGGA,063654.90,4012.3554417,N,11613.6771630,E,4,38,0.0,62.299,M,-8.420,M,0.0,0000*78
$GNGGA,063655.90,4012.3554416,N,11613.6771631,E,4,38,0.0,62.300,M,-8.420,M,0.0,0000*78
$GNGGA,063656.90,4012.3554420,N,11613.6771632,E,4,38,0.0,62.304,M,-8.420,M,0.0,0000*79
$GNGGA,063657.91,4012.3554414,N,11613.6771631,E,4,38,0.0,62.301,M,-8.420,M,0.0,0000*78
$GNGGA,063658.91,4012.3554406,N,11613.6771633,E,4,38,0.0,62.300,M,-8.420,M,0.0,0000*77
$GNGGA,063659.91,4012.3554414,N,11613.6771634,E,4,38,0.0,62.298,M,-8.420,M,0.0,0000*72
$GNGGA,063700.91,4012.3555080,N,11613.6771598,E,4,38,0.0,62.294,M,-8.420,M,0.0,0000*7E
$GNGGA,063701.92,4012.3560724,N,11613.6771320,E,4,38,0.0,62.298,M,-8.420,M,0.0,0000*7A
$GNGGA,063702.92,4012.3572616,N,11613.6770722,E,4,38,0.0,62.325,M,-8.420,M,0.0,0000*7A
$GNGGA,063703.92,4012.3588492,N,11613.6769989,E,4,38,0.0,62.346,M,-8.420,M,0.0,0000*72
$GNGGA,063704.93,4012.3607787,N,11613.6769093,E,4,39,0.0,62.354,M,-8.420,M,0.0,0000*77
$GNGGA,063705.93,4012.3627990,N,11613.6768079,E,4,38,0.0,62.363,M,-8.420,M,0.0,0000*7C
$GNGGA,063706.93,4012.3646987,N,11613.6767067,E,4,36,0.0,62.378,M,-8.420,M,0.0,0000*7A
$GNGGA,063707.93,4012.3663023,N,11613.6765891,E,4,37,0.0,62.383,M,-8.420,M,0.0,0000*7D
$GNGGA,063708.94,4012.3674034,N,11613.6764476,E,4,36,0.0,62.371,M,-8.420,M,0.0,0000*7D
$GNGGA,063709.94,4012.3678732,N,11613.6763689,E,4,38,0.0,62.370,M,-8.420,M,0.0,0000*7B
$GNGGA,063710.94,4012.3681084,N,11613.6763316,E,4,38,0.0,62.371,M,-8.420,M,0.0,0000*7D
$GNGGA,063711.95,4012.3681938,N,11613.6763183,E,4,39,0.0,62.365,M,-8.420,M,0.0,0000*79
$GNGGA,063712.95,4012.3684162,N,11613.6762780,E,4,38,0.0,62.377,M,-8.420,M,0.0,0000*7E
$GNGGA,063713.95,4012.3686972,N,11613.6762286,E,4,39,0.0,62.381,M,-8.420,M,0.0,0000*7F
$GNGGA,063714.95,4012.3688776,N,11613.6761973,E,4,40,0.0,62.380,M,-8.420,M,0.0,0000*71
$GNGGA,063715.96,4012.3690458,N,11613.6761652,E,4,40,0.0,62.382,M,-8.420,M,0.0,0000*7B
$GNGGA,063716.96,4012.3692310,N,11613.6761286,E,4,39,0.0,62.380,M,-8.420,M,0.0,0000*70
$GNGGA,063717.96,4012.3693683,N,11613.6761045,E,4,40,0.0,62.379,M,-8.420,M,0.0,0000*7A
$GNGGA,063718.97,4012.3695351,N,11613.6760712,E,4,39,0.0,62.375,M,-8.420,M,0.0,0000*7E
$GNGGA,063719.97,4012.3697163,N,11613.6760379,E,4,39,0.0,62.382,M,-8.420,M,0.0,0000*7F
$GNGGA,063720.97,4012.3699421,N,11613.6759910,E,4,39,0.0,62.382,M,-8.420,M,0.0,0000*77
$GNGGA,063721.97,4012.3702154,N,11613.6759354,E,4,39,0.0,62.386,M,-8.420,M,0.0,0000*7C
$GNGGA,063722.98,4012.3706448,N,11613.6758465,E,4,39,0.0,62.378,M,-8.420,M,0.0,0000*79
$GNGGA,063723.98,4012.3714768,N,11613.6756373,E,4,38,0.0,62.390,M,-8.420,M,0.0,0000*73
$GNGGA,063724.98,4012.3728104,N,11613.6749491,E,4,38,0.0,62.408,M,-8.420,M,0.0,0000*74
$GNGGA,063725.99,4012.3742372,N,11613.6733010,E,4,37,0.0,62.433,M,-8.420,M,0.0,0000*7C
$GNGGA,063726.99,4012.3752531,N,11613.6702927,E,4,35,0.0,62.398,M,-8.420,M,0.0,0000*74
$GNGGA,063727.99,4012.3756564,N,11613.6660192,E,4,34,0.0,62.409,M,-8.420,M,0.0,0000*7C
$GNGGA,063728.99,4012.3757368,N,11613.6607727,E,4,32,0.0,62.443,M,-8.420,M,0.0,0000*79
$GNGGA,063730.00,4012.3757588,N,11613.6546199,E,4,31,0.0,62.467,M,-8.420,M,0.0,0000*78
$GNGGA,063731.00,4012.3756734,N,11613.6476020,E,4,27,0.0,62.463,M,-8.421,M,0.0,0000*7E
$GNGGA,063732.00,4012.3755108,N,11613.6395370,E,4,31,0.0,62.501,M,-8.421,M,0.0,0000*79
$GNGGA,063733.01,4012.3753278,N,11613.6306455,E,4,27,0.0,62.527,M,-8.421,M,0.0,0000*72
$GNGGA,063734.01,4012.3751486,N,11613.6211825,E,4,29,0.0,62.535,M,-8.421,M,0.0,0000*71
$GNGGA,063735.01,4012.3749798,N,11613.6114653,E,4,32,0.0,62.632,M,-8.422,M,0.0,0000*71
$GNGGA,063736.01,4012.3748113,N,11613.6018098,E,4,33,0.0,62.636,M,-8.422,M,0.0,0000*7F
$GNGGA,063737.02,4012.3746065,N,11613.5922758,E,4,34,0.0,62.632,M,-8.422,M,0.0,0000*78
$GNGGA,063738.02,4012.3744129,N,11613.5830557,E,4,33,0.0,62.711,M,-8.423,M,0.0,0000*75
$GNGGA,063739.02,4012.3742102,N,11613.5740322,E,4,34,0.0,62.740,M,-8.423,M,0.0,0000*74
$GNGGA,063740.03,4012.3740075,N,11613.5651844,E,4,36,0.0,62.766,M,-8.423,M,0.0,0000*74
$GNGGA,063741.03,4012.3738036,N,11613.5566785,E,4,35,0.0,62.772,M,-8.423,M,0.0,0000*7E
$GNGGA,063742.03,4012.3736249,N,11613.5484238,E,4,38,0.0,62.778,M,-8.424,M,0.0,0000*77
$GNGGA,063743.03,4012.3734586,N,11613.5407145,E,4,39,0.0,62.806,M,-8.424,M,0.0,0000*75
$GNGGA,063744.04,4012.3733078,N,11613.5338064,E,4,43,0.0,62.817,M,-8.424,M,0.0,0000*72
$GNGGA,063745.04,4012.3731583,N,11613.5277752,E,4,37,0.0,62.827,M,-8.424,M,0.0,0000*78
$GNGGA,063746.04,4012.3730347,N,11613.5228744,E,4,42,0.0,62.843,M,-8.425,M,0.0,0000*78
$GNGGA,063747.04,4012.3729305,N,11613.5191352,E,4,44,0.0,62.854,M,-8.425,M,0.0,0000*75
$GNGGA,063748.05,4012.3728413,N,11613.5161670,E,4,43,0.0,62.875,M,-8.425,M,0.0,0000*74
$GNGGA,063749.05,4012.3727747,N,11613.5138626,E,4,43,0.0,62.877,M,-8.425,M,0.0,0000*75
$GNGGA,063750.05,4012.3727284,N,11613.5122575,E,4,43,0.0,62.877,M,-8.425,M,0.0,0000*79
$GNGGA,063751.06,4012.3727022,N,11613.5112878,E,4,43,0.0,62.870,M,-8.425,M,0.0,0000*71
$GNGGA,063752.06,4012.3726826,N,11613.5106011,E,4,45,0.0,62.865,M,-8.425,M,0.0,0000*7F
$GNGGA,063753.06,4012.3726717,N,11613.5103045,E,4,45,0.0,62.868,M,-8.425,M,0.0,0000*7A
$GNGGA,063754.07,4012.3726722,N,11613.5103088,E,4,45,0.0,62.872,M,-8.425,M,0.0,0000*70
$GNGGA,063755.07,4012.3726717,N,11613.5103084,E,4,45,0.0,62.874,M,-8.425,M,0.0,0000*7D
$GNGGA,063756.07,4012.3726731,N,11613.5103074,E,4,45,0.0,62.875,M,-8.425,M,0.0,0000*74
$GNGGA,063757.07,4012.3726715,N,11613.5103081,E,4,45,0.0,62.872,M,-8.425,M,0.0,0000*7E
$GNGGA,063758.08,4012.3726720,N,11613.5103078,E,4,45,0.0,62.872,M,-8.425,M,0.0,0000*7E
$GNGGA,063759.08,4012.3726713,N,11613.5103082,E,4,45,0.0,62.875,M,-8.425,M,0.0,0000*7D
$GNGGA,063800.08,4012.3726722,N,11613.5103082,E,4,45,0.0,62.873,M,-8.425,M,0.0,0000*7A
$GNGGA,063801.09,4012.3726723,N,11613.5103087,E,4,45,0.0,62.871,M,-8.425,M,0.0,0000*7C
$GNGGA,063802.09,4012.3726718,N,11613.5103085,E,4,45,0.0,62.871,M,-8.425,M,0.0,0000*75
$GNGGA,063803.09,4012.3726726,N,11613.5103082,E,4,45,0.0,62.875,M,-8.425,M,0.0,0000*7A
$GNGGA,063804.09,4012.3726723,N,11613.5103088,E,4,45,0.0,62.875,M,-8.425,M,0.0,0000*72
$GNGGA,063805.10,4012.3726719,N,11613.5103084,E,4,45,0.0,62.874,M,-8.425,M,0.0,0000*7F
$GNGGA,063806.10,4012.3726718,N,11613.5103082,E,4,45,0.0,62.873,M,-8.425,M,0.0,0000*7C
$GNGGA,063807.10,4012.3726714,N,11613.5103083,E,4,45,0.0,62.873,M,-8.425,M,0.0,0000*70
$GNGGA,063808.10,4012.3726719,N,11613.5103086,E,4,45,0.0,62.869,M,-8.425,M,0.0,0000*7C
$GNGGA,063809.11,4012.3726717,N,11613.5103096,E,4,44,0.0,62.872,M,-8.425,M,0.0,0000*78
$GNGGA,063810.11,4012.3726689,N,11613.5102190,E,4,45,0.0,62.870,M,-8.425,M,0.0,0000*73
$GNGGA,063811.11,4012.3726404,N,11613.5093558,E,4,44,0.0,62.869,M,-8.425,M,0.0,0000*75
$GNGGA,063812.12,4012.3725823,N,11613.5071414,E,4,45,0.0,62.875,M,-8.425,M,0.0,0000*76
$GNGGA,063813.12,4012.3725052,N,11613.5037043,E,4,45,0.0,62.892,M,-8.425,M,0.0,0000*74
$GNGGA,063814.12,4012.3723813,N,11613.4990817,E,4,44,0.0,62.872,M,-8.425,M,0.0,0000*7B
$GNGGA,063815.12,4012.3722746,N,11613.4930929,E,4,43,0.0,62.902,M,-8.426,M,0.0,0000*70
$GNGGA,063816.13,4012.3721690,N,11613.4861354,E,4,41,0.0,62.957,M,-8.426,M,0.0,0000*7C
$GNGGA,063817.13,4012.3720156,N,11613.4778466,E,4,43,0.0,62.987,M,-8.426,M,0.0,0000*7F
$GNGGA,063818.13,4012.3718264,N,11613.4688951,E,4,41,0.0,63.047,M,-8.426,M,0.0,0000*78
$GNGGA,063819.14,4012.3716248,N,11613.4595108,E,4,44,0.0,63.038,M,-8.427,M,0.0,0000*79
$GNGGA,063820.14,4012.3714096,N,11613.4499356,E,4,42,0.0,63.079,M,-8.427,M,0.0,0000*77
$GNGGA,063821.14,4012.3712236,N,11613.4399813,E,4,41,0.0,63.105,M,-8.427,M,0.0,0000*7C
$GNGGA,063822.14,4012.3710141,N,11613.4300956,E,4,37,0.0,63.164,M,-8.428,M,0.0,0000*77
$GNGGA,063823.15,4012.3707490,N,11613.4199937,E,4,39,0.0,63.186,M,-8.428,M,0.0,0000*7F
$GNGGA,063824.15,4012.3704964,N,11613.4098801,E,4,38,0.0,63.179,M,-8.428,M,0.0,0000*78
$GNGGA,063825.15,4012.3702431,N,11613.3997909,E,4,35,0.0,63.239,M,-8.429,M,0.0,0000*71
$GNGGA,063826.16,4012.3700368,N,11613.3894442,E,4,36,0.0,63.289,M,-8.429,M,0.0,0000*70
$GNGGA,063827.16,4012.3698572,N,11613.3791958,E,4,40,0.0,63.319,M,-8.429,M,0.0,0000*79
$GNGGA,063828.16,4012.3697295,N,11613.3685753,E,4,40,0.0,63.343,M,-8.430,M,0.0,0000*71
$GNGGA,063829.16,4012.3695796,N,11613.3581736,E,4,40,0.0,63.403,M,-8.430,M,0.0,0000*73
$GNGGA,063830.17,4012.3693955,N,11613.3479061,E,4,39,0.0,63.425,M,-8.430,M,0.0,0000*74
$GNGGA,063831.17,4012.3691705,N,11613.3377683,E,4,37,0.0,63.441,M,-8.431,M,0.0,0000*72
$GNGGA,063832.17,4012.3689489,N,11613.3280820,E,4,37,0.0,63.414,M,-8.431,M,0.0,0000*71
$GNGGA,063833.17,4012.3687778,N,11613.3191136,E,4,39,0.0,63.423,M,-8.431,M,0.0,0000*74
$GNGGA,063834.18,4012.3686764,N,11613.3107654,E,4,40,0.0,63.453,M,-8.432,M,0.0,0000*76
$GNGGA,063835.18,4012.3685687,N,11613.3025231,E,4,43,0.0,63.430,M,-8.432,M,0.0,0000*78
$GNGGA,063836.18,4012.3683828,N,11613.2943289,E,4,44,0.0,63.446,M,-8.432,M,0.0,0000*7B
$GNGGA,063837.19,4012.3681381,N,11613.2859445,E,4,44,0.0,63.434,M,-8.432,M,0.0,0000*78
$GNGGA,063838.19,4012.3678580,N,11613.2775188,E,4,43,0.0,63.474,M,-8.433,M,0.0,0000*71
$GNGGA,063839.19,4012.3676059,N,11613.2693164,E,4,44,0.0,63.503,M,-8.433,M,0.0,0000*72
$GNGGA,063840.20,4012.3674182,N,11613.2613310,E,4,44,0.0,63.503,M,-8.433,M,0.0,0000*7A
$GNGGA,063841.20,4012.3672559,N,11613.2535357,E,4,43,0.0,63.496,M,-8.433,M,0.0,0000*71
$GNGGA,063842.20,4012.3671360,N,11613.2462287,E,4,43,0.0,63.494,M,-8.434,M,0.0,0000*77
$GNGGA,063843.20,4012.3670491,N,11613.2397470,E,4,44,0.0,63.504,M,-8.434,M,0.0,0000*72
$GNGGA,063844.21,4012.3669809,N,11613.2345062,E,4,43,0.0,63.516,M,-8.434,M,0.0,0000*7D
$GNGGA,063845.21,4012.3669388,N,11613.2307775,E,4,43,0.0,63.551,M,-8.434,M,0.0,0000*7A
$GNGGA,063846.21,4012.3669208,N,11613.2285103,E,4,41,0.0,63.564,M,-8.434,M,0.0,0000*78
$GNGGA,063847.22,4012.3669129,N,11613.2270482,E,4,42,0.0,63.585,M,-8.434,M,0.0,0000*70
$GNGGA,063848.22,4012.3669071,N,11613.2263584,E,4,41,0.0,63.586,M,-8.434,M,0.0,0000*76
$GNGGA,063849.22,4012.3669043,N,11613.2257758,E,4,42,0.0,63.598,M,-8.434,M,0.0,0000*7E
$GNGGA,063850.22,4012.3669026,N,11613.2252122,E,4,42,0.0,63.600,M,-8.434,M,0.0,0000*79
$GNGGA,063851.23,4012.3669026,N,11613.2245504,E,4,42,0.0,63.607,M,-8.434,M,0.0,0000*78
$GNGGA,063852.23,4012.3669029,N,11613.2237495,E,4,42,0.0,63.610,M,-8.434,M,0.0,0000*7E
$GNGGA,063853.23,4012.3669062,N,11613.2229693,E,4,42,0.0,63.621,M,-8.434,M,0.0,0000*79
$GNGGA,063854.23,4012.3669146,N,11613.2223685,E,4,42,0.0,63.621,M,-8.434,M,0.0,0000*74
$GNGGA,063855.24,4012.3669246,N,11613.2218955,E,4,41,0.0,63.630,M,-8.435,M,0.0,0000*79
$GNGGA,063856.24,4012.3669282,N,11613.2216726,E,4,42,0.0,63.623,M,-8.435,M,0.0,0000*77
$GNGGA,063857.24,4012.3669365,N,11613.2214292,E,4,42,0.0,63.627,M,-8.435,M,0.0,0000*72
$GNGGA,063858.25,4012.3669491,N,11613.2210523,E,4,42,0.0,63.626,M,-8.435,M,0.0,0000*78
$GNGGA,063859.25,4012.3669931,N,11613.2204339,E,4,42,0.0,63.624,M,-8.435,M,0.0,0000*74
$GNGGA,063900.25,4012.3672040,N,11613.2191379,E,4,42,0.0,63.642,M,-8.435,M,0.0,0000*77
$GNGGA,063901.26,4012.3678912,N,11613.2173108,E,4,42,0.0,63.666,M,-8.435,M,0.0,0000*7F
$GNGGA,063902.26,4012.3693778,N,11613.2152000,E,4,41,0.0,63.691,M,-8.435,M,0.0,0000*7A
$GNGGA,063903.26,4012.3718056,N,11613.2128404,E,4,38,0.0,63.774,M,-8.435,M,0.0,0000*7B
$GNGGA,063904.26,4012.3751983,N,11613.2102084,E,4,37,0.0,63.843,M,-8.435,M,0.0,0000*70
$GNGGA,063905.27,4012.3793201,N,11613.2071592,E,4,39,0.0,63.926,M,-8.435,M,0.0,0000*74
$GNGGA,063906.27,4012.3840566,N,11613.2037607,E,4,37,0.0,64.003,M,-8.435,M,0.0,0000*7A
$GNGGA,063907.27,4012.3895442,N,11613.1998415,E,4,41,0.0,64.094,M,-8.435,M,0.0,0000*75
$GNGGA,063908.28,4012.3952639,N,11613.1956942,E,4,40,0.0,64.213,M,-8.435,M,0.0,0000*70
$GNGGA,063909.28,4012.4012368,N,11613.1912926,E,4,40,0.0,64.322,M,-8.435,M,0.0,0000*7B
$GNGGA,063910.28,4012.4075027,N,11613.1863459,E,4,41,0.0,64.444,M,-8.435,M,0.0,0000*7E
$GNGGA,063911.28,4012.4141973,N,11613.1809190,E,4,40,0.0,64.582,M,-8.435,M,0.0,0000*77
$GNGGA,063912.29,4012.4216362,N,11613.1750820,E,4,41,0.0,64.720,M,-8.436,M,0.0,0000*77
$GNGGA,063913.29,4012.4294375,N,11613.1691865,E,4,41,0.0,64.855,M,-8.436,M,0.0,0000*7A
$GNGGA,063914.29,4012.4369070,N,11613.1637637,E,4,39,0.0,64.985,M,-8.436,M,0.0,0000*7E
$GNGGA,063915.29,4012.4436996,N,11613.1589315,E,4,39,0.0,65.115,M,-8.436,M,0.0,0000*70
$GNGGA,063916.30,4012.4496986,N,11613.1547222,E,4,41,0.0,65.233,M,-8.436,M,0.0,0000*7F
$GNGGA,063917.30,4012.4550447,N,11613.1510036,E,4,41,0.0,65.354,M,-8.436,M,0.0,0000*70
$GNGGA,063918.30,4012.4599179,N,11613.1476187,E,4,42,0.0,65.472,M,-8.436,M,0.0,0000*78
$GNGGA,063919.31,4012.4644666,N,11613.1444894,E,4,42,0.0,65.592,M,-8.436,M,0.0,0000*77
$GNGGA,063920.31,4012.4688575,N,11613.1415544,E,4,43,0.0,65.711,M,-8.436,M,0.0,0000*70
$GNGGA,063921.31,4012.4729808,N,11613.1389913,E,4,45,0.0,65.803,M,-8.436,M,0.0,0000*7A
$GNGGA,063922.31,4012.4769751,N,11613.1366031,E,4,44,0.0,65.886,M,-8.436,M,0.0,0000*7A
$GNGGA,063923.32,4012.4810994,N,11613.1342067,E,4,45,0.0,65.988,M,-8.436,M,0.0,0000*75
$GNGGA,063924.32,4012.4854437,N,11613.1317748,E,4,45,0.0,66.090,M,-8.436,M,0.0,0000*7F
$GNGGA,063925.32,4012.4898918,N,11613.1294353,E,4,46,0.0,66.196,M,-8.436,M,0.0,0000*7E
$GNGGA,063926.33,4012.4942184,N,11613.1272832,E,4,46,0.0,66.299,M,-8.436,M,0.0,0000*7F
$GNGGA,063927.33,4012.4984478,N,11613.1252386,E,4,45,0.0,66.393,M,-8.436,M,0.0,0000*7C
$GNGGA,063928.33,4012.5025052,N,11613.1233261,E,4,45,0.0,66.472,M,-8.436,M,0.0,0000*7B
$GNGGA,063929.33,4012.5062680,N,11613.1215698,E,4,44,0.0,66.534,M,-8.436,M,0.0,0000*74
$GNGGA,063930.34,4012.5095083,N,11613.1200518,E,4,45,0.0,66.582,M,-8.437,M,0.0,0000*74
$GNGGA,063931.34,4012.5123043,N,11613.1187377,E,4,45,0.0,66.607,M,-8.437,M,0.0,0000*78
$GNGGA,063932.34,4012.5149736,N,11613.1174859,E,4,45,0.0,66.631,M,-8.437,M,0.0,0000*7C
$GNGGA,063933.35,4012.5180374,N,11613.1160499,E,4,45,0.0,66.649,M,-8.437,M,0.0,0000*71
$GNGGA,063934.35,4012.5219280,N,11613.1142569,E,4,44,0.0,66.672,M,-8.437,M,0.0,0000*78
$GNGGA,063935.35,4012.5264809,N,11613.1122041,E,4,44,0.0,66.690,M,-8.437,M,0.0,0000*7D
$GNGGA,063936.35,4012.5313820,N,11613.1100509,E,4,44,0.0,66.714,M,-8.437,M,0.0,0000*70
$GNGGA,063937.36,4012.5362200,N,11613.1080514,E,4,45,0.0,66.730,M,-8.437,M,0.0,0000*7E
$GNGGA,063938.36,4012.5408395,N,11613.1064353,E,4,44,0.0,66.738,M,-8.437,M,0.0,0000*71
$GNGGA,063939.36,4012.5445702,N,11613.1053908,E,4,45,0.0,66.734,M,-8.437,M,0.0,0000*7E
$GNGGA,063940.37,4012.5478820,N,11613.1043144,E,4,44,0.0,66.738,M,-8.437,M,0.0,0000*7C
$GNGGA,063941.37,4012.5513333,N,11613.1028834,E,4,45,0.0,66.725,M,-8.437,M,0.0,0000*76
$GNGGA,063942.37,4012.5555034,N,11613.1010150,E,4,44,0.0,66.741,M,-8.437,M,0.0,0000*70
$GNGGA,063943.37,4012.5603989,N,11613.0987173,E,4,45,0.0,66.732,M,-8.437,M,0.0,0000*7C
$GNGGA,063944.38,4012.5660533,N,11613.0960854,E,4,44,0.0,66.727,M,-8.437,M,0.0,0000*7C
$GNGGA,063945.38,4012.5719893,N,11613.0932927,E,4,45,0.0,66.712,M,-8.437,M,0.0,0000*70
$GNGGA,063946.38,4012.5776229,N,11613.0906667,E,4,45,0.0,66.713,M,-8.437,M,0.0,0000*7C
$GNGGA,063947.39,4012.5826287,N,11613.0883157,E,4,45,0.0,66.705,M,-8.437,M,0.0,0000*7D
$GNGGA,063948.39,4012.5868832,N,11613.0863462,E,4,45,0.0,66.688,M,-8.437,M,0.0,0000*75
$GNGGA,063949.39,4012.5904924,N,11613.0846923,E,4,44,0.0,66.677,M,-8.437,M,0.0,0000*77
$GNGGA,063950.39,4012.5935233,N,11613.0832997,E,4,44,0.0,66.669,M,-8.437,M,0.0,0000*73
$GNGGA,063951.40,4012.5961798,N,11613.0820717,E,4,44,0.0,66.655,M,-8.437,M,0.0,0000*73
$GNGGA,063952.40,4012.5984712,N,11613.0809951,E,4,44,0.0,66.642,M,-8.437,M,0.0,0000*78
$GNGGA,063953.40,4012.6006059,N,11613.0799790,E,4,44,0.0,66.637,M,-8.437,M,0.0,0000*76
$GNGGA,063954.41,4012.6024742,N,11613.0790738,E,4,43,0.0,66.629,M,-8.437,M,0.0,0000*7E
$GNGGA,063955.41,4012.6039281,N,11613.0783596,E,4,43,0.0,66.623,M,-8.437,M,0.0,0000*77
$GNGGA,063956.41,4012.6050247,N,11613.0778210,E,4,43,0.0,66.636,M,-8.437,M,0.0,0000*78
$GNGGA,063957.41,4012.6056390,N,11613.0775110,E,4,44,0.0,66.623,M,-8.437,M,0.0,0000*79
$GNGGA,063958.42,4012.6058812,N,11613.0773915,E,4,44,0.0,66.618,M,-8.437,M,0.0,0000*79
$GNGGA,063959.42,4012.6058774,N,11613.0773935,E,4,44,0.0,66.621,M,-8.437,M,0.0,0000*7F
$GNGGA,064000.42,4012.6058779,N,11613.0773948,E,4,44,0.0,66.621,M,-8.437,M,0.0,0000*7A
$GNGGA,064001.42,4012.6058773,N,11613.0773944,E,4,44,0.0,66.625,M,-8.437,M,0.0,0000*79
$GNGGA,064002.43,4012.6058771,N,11613.0773943,E,4,44,0.0,66.625,M,-8.437,M,0.0,0000*7E
$GNGGA,064003.43,4012.6058772,N,11613.0773939,E,4,44,0.0,66.623,M,-8.437,M,0.0,0000*77
$GNGGA,064004.43,4012.6058770,N,11613.0773928,E,4,44,0.0,66.625,M,-8.437,M,0.0,0000*74
$GNGGA,064005.44,4012.6058773,N,11613.0773935,E,4,44,0.0,66.624,M,-8.437,M,0.0,0000*7C
$GNGGA,064006.44,4012.6058767,N,11613.0773947,E,4,44,0.0,66.621,M,-8.437,M,0.0,0000*7A
$GNGGA,064007.44,4012.6058772,N,11613.0773940,E,4,44,0.0,66.622,M,-8.437,M,0.0,0000*7B
$GNGGA,064008.45,4012.6058773,N,11613.0773945,E,4,45,0.0,66.623,M,-8.437,M,0.0,0000*71
$GNGGA,064009.45,4012.6058768,N,11613.0773946,E,4,45,0.0,66.624,M,-8.437,M,0.0,0000*7E
$GNGGA,064010.45,4012.6058779,N,11613.0773942,E,4,45,0.0,66.622,M,-8.437,M,0.0,0000*74
$GNGGA,064011.45,4012.6058772,N,11613.0773940,E,4,45,0.0,66.620,M,-8.437,M,0.0,0000*7E
$GNGGA,064012.46,4012.6058767,N,11613.0773938,E,4,43,0.0,66.623,M,-8.437,M,0.0,0000*70
$GNGGA,064013.46,4012.6058874,N,11613.0773884,E,4,44,0.0,66.617,M,-8.437,M,0.0,0000*7A
$GNGGA,064014.46,4012.6060486,N,11613.0773050,E,4,45,0.0,66.618,M,-8.437,M,0.0,0000*78
$GNGGA,064015.47,4012.6065414,N,11613.0770445,E,4,45,0.0,66.610,M,-8.437,M,0.0,0000*7D
$GNGGA,064016.47,4012.6072745,N,11613.0766423,E,4,44,0.0,66.615,M,-8.437,M,0.0,0000*7C
$GNGGA,064017.47,4012.6077111,N,11613.0764022,E,4,44,0.0,66.615,M,-8.437,M,0.0,0000*78
$GNGGA,064018.47,4012.6079059,N,11613.0762955,E,4,44,0.0,66.620,M,-8.437,M,0.0,0000*7D
$GNGGA,064019.48,4012.6079363,N,11613.0762767,E,4,44,0.0,66.621,M,-8.437,M,0.0,0000*77
$GNGGA,064020.48,4012.6079361,N,11613.0762765,E,4,44,0.0,66.619,M,-8.437,M,0.0,0000*76
$GNGGA,064021.48,4012.6079360,N,11613.0762768,E,4,45,0.0,66.620,M,-8.437,M,0.0,0000*70
$GNGGA,064022.48,4012.6079360,N,11613.0762763,E,4,45,0.0,66.617,M,-8.437,M,0.0,0000*7C
$GNGGA,064023.49,4012.6079358,N,11613.0762753,E,4,45,0.0,66.618,M,-8.437,M,0.0,0000*7B
$GNGGA,064024.49,4012.6079360,N,11613.0762754,E,4,45,0.0,66.621,M,-8.437,M,0.0,0000*7A
$GNGGA,064025.49,4012.6079354,N,11613.0762757,E,4,45,0.0,66.624,M,-8.437,M,0.0,0000*7A
$GNGGA,064026.50,4012.6079362,N,11613.0762765,E,4,45,0.0,66.622,M,-8.437,M,0.0,0000*73
$GNGGA,064027.50,4012.6079361,N,11613.0762749,E,4,45,0.0,66.619,M,-8.437,M,0.0,0000*77
$GNGGA,064028.50,4012.6079356,N,11613.0762753,E,4,45,0.0,66.622,M,-8.437,M,0.0,0000*7F
$GNGGA,064029.51,4012.6079360,N,11613.0762760,E,4,45,0.0,66.625,M,-8.437,M,0.0,0000*7D
$GNGGA,064030.51,4012.6079367,N,11613.0762763,E,4,45,0.0,66.620,M,-8.437,M,0.0,0000*74
$GNGGA,064031.51,4012.6079350,N,11613.0762755,E,4,43,0.0,66.617,M,-8.437,M,0.0,0000*76
$GNGGA,064032.51,4012.6079363,N,11613.0762751,E,4,43,0.0,66.619,M,-8.437,M,0.0,0000*7F
$GNGGA,064033.52,4012.6079364,N,11613.0762752,E,4,43,0.0,66.619,M,-8.437,M,0.0,0000*79
$GNGGA,064034.52,4012.6079360,N,11613.0762760,E,4,44,0.0,66.622,M,-8.437,M,0.0,0000*74
$GNGGA,064035.52,4012.6079349,N,11613.0762757,E,4,45,0.0,66.622,M,-8.437,M,0.0,0000*7B
$GNGGA,064036.53,4012.6079360,N,11613.0762765,E,4,45,0.0,66.618,M,-8.437,M,0.0,0000*7A
$GNGGA,064037.53,4012.6079364,N,11613.0762758,E,4,45,0.0,66.616,M,-8.437,M,0.0,0000*7F
$GNGGA,064038.53,4012.6079359,N,11613.0762756,E,4,45,0.0,66.619,M,-8.437,M,0.0,0000*7F
$GNGGA,064039.53,4012.6079360,N,11613.0762748,E,4,45,0.0,66.619,M,-8.437,M,0.0,0000*7B
$GNGGA,064040.54,4012.6079355,N,11613.0762764,E,4,45,0.0,66.619,M,-8.437,M,0.0,0000*7A
$GNGGA,064041.54,4012.6079359,N,11613.0762757,E,4,45,0.0,66.621,M,-8.437,M,0.0,0000*7C
$GNGGA,064042.54,4012.6079361,N,11613.0762751,E,4,45,0.0,66.618,M,-8.437,M,0.0,0000*78
$GNGGA,064043.54,4012.6079359,N,11613.0762762,E,4,45,0.0,66.619,M,-8.437,M,0.0,0000*73
$GNGGA,064044.55,4012.6079363,N,11613.0762749,E,4,45,0.0,66.620,M,-8.437,M,0.0,0000*7F
$GNGGA,064045.55,4012.6079357,N,11613.0762747,E,4,45,0.0,66.620,M,-8.437,M,0.0,0000*77
$GNGGA,064046.55,4012.6079356,N,11613.0762756,E,4,45,0.0,66.622,M,-8.437,M,0.0,0000*77
$GNGGA,064047.56,4012.6079356,N,11613.0762758,E,4,45,0.0,66.619,M,-8.437,M,0.0,0000*73
$GNGGA,064048.56,4012.6079371,N,11613.0762758,E,4,45,0.0,66.624,M,-8.437,M,0.0,0000*77
$GNGGA,064049.56,4012.6079367,N,11613.0762748,E,4,45,0.0,66.620,M,-8.437,M,0.0,0000*74
$GNGGA,064050.56,4012.6079364,N,11613.0762761,E,4,45,0.0,66.620,M,-8.437,M,0.0,0000*74
$GNGGA,064051.57,4012.6079353,N,11613.0762758,E,4,46,0.0,66.619,M,-8.437,M,0.0,0000*73
$GNGGA,064052.57,4012.6079363,N,11613.0762756,E,4,45,0.0,66.620,M,-8.437,M,0.0,0000*74
$GNGGA,064053.57,4012.6079353,N,11613.0762749,E,4,45,0.0,66.616,M,-8.437,M,0.0,0000*7D
$GNGGA,064054.58,4012.6079359,N,11613.0762746,E,4,45,0.0,66.619,M,-8.437,M,0.0,0000*7F
$GNGGA,064055.58,4012.6079356,N,11613.0762767,E,4,45,0.0,66.619,M,-8.437,M,0.0,0000*72
$GNGGA,064056.58,4012.6079348,N,11613.0762744,E,4,45,0.0,66.619,M,-8.437,M,0.0,0000*7F
$GNGGA,064057.58,4012.6079356,N,11613.0762745,E,4,46,0.0,66.619,M,-8.437,M,0.0,0000*73
$GNGGA,064058.59,4012.6079364,N,11613.0762732,E,4,46,0.0,66.620,M,-8.437,M,0.0,0000*76
$GNGGA,064059.59,4012.6079353,N,11613.0762760,E,4,46,0.0,66.618,M,-8.437,M,0.0,0000*7F
$GNGGA,064100.59,4012.6079360,N,11613.0762746,E,4,46,0.0,66.617,M,-8.437,M,0.0,0000*79
$GNGGA,064101.59,4012.6079348,N,11613.0762743,E,4,46,0.0,66.621,M,-8.437,M,0.0,0000*72
$GNGGA,064102.60,4012.6079357,N,11613.0762749,E,4,46,0.0,66.621,M,-8.437,M,0.0,0000*7F
$GNGGA,064103.60,4012.6079367,N,11613.0762751,E,4,46,0.0,66.620,M,-8.437,M,0.0,0000*75
$GNGGA,064104.60,4012.6079361,N,11613.0762748,E,4,46,0.0,66.624,M,-8.437,M,0.0,0000*78
$GNGGA,064105.61,4012.6079362,N,11613.0762747,E,4,45,0.0,66.622,M,-8.437,M,0.0,0000*71
$GNGGA,064106.61,4012.6079364,N,11613.0762740,E,4,45,0.0,66.620,M,-8.437,M,0.0,0000*71
$GNGGA,064107.61,4012.6079432,N,11613.0762742,E,4,45,0.0,66.600,M,-8.437,M,0.0,0000*74
$GNGGA,064108.61,4012.6079422,N,11613.0762734,E,4,45,0.0,66.602,M,-8.437,M,0.0,0000*79
$GNGGA,064109.62,4012.6079415,N,11613.0762732,E,4,45,0.0,66.600,M,-8.437,M,0.0,0000*7B
$GNGGA,064110.62,4012.6079412,N,11613.0762722,E,4,45,0.0,66.599,M,-8.437,M,0.0,0000*76
$GNGGA,064111.62,4012.6079408,N,11613.0762734,E,4,45,0.0,66.606,M,-8.437,M,0.0,0000*7E
$GNGGA,064112.63,4012.6079409,N,11613.0762731,E,4,45,0.0,66.604,M,-8.437,M,0.0,0000*7A
$GNGGA,064113.63,4012.6079402,N,11613.0762735,E,4,45,0.0,66.606,M,-8.437,M,0.0,0000*76
$GNGGA,064114.63,4012.6079392,N,11613.0762731,E,4,45,0.0,66.604,M,-8.437,M,0.0,0000*79
$GNGGA,064115.64,4012.6079390,N,11613.0762723,E,4,45,0.0,66.605,M,-8.437,M,0.0,0000*7F
$GNGGA,064116.64,4012.6079397,N,11613.0762741,E,4,45,0.0,66.608,M,-8.437,M,0.0,0000*72
$GNGGA,064117.64,4012.6079396,N,11613.0762735,E,4,45,0.0,66.608,M,-8.437,M,0.0,0000*71
$GNGGA,064118.64,4012.6079385,N,11613.0762743,E,4,45,0.0,66.605,M,-8.437,M,0.0,0000*70
$GNGGA,064119.65,4012.6079390,N,11613.0762731,E,4,45,0.0,66.610,M,-8.437,M,0.0,0000*75
$GNGGA,064120.65,4012.6079387,N,11613.0762738,E,4,45,0.0,66.606,M,-8.437,M,0.0,0000*77
$GNGGA,064121.65,4012.6079376,N,11613.0762739,E,4,46,0.0,66.611,M,-8.437,M,0.0,0000*7C
$GNGGA,064122.66,4012.6079386,N,11613.0762726,E,4,46,0.0,66.611,M,-8.437,M,0.0,0000*7D
$GNGGA,064123.66,4012.6080322,N,11613.0762217,E,4,46,0.0,66.597,M,-8.437,M,0.0,0000*7E
$GNGGA,064124.66,4012.6085625,N,11613.0759227,E,4,46,0.0,66.596,M,-8.437,M,0.0,0000*74
$GNGGA,064125.66,4012.6092600,N,11613.0755456,E,4,46,0.0,66.598,M,-8.437,M,0.0,0000*76
$GNGGA,064126.67,4012.6100153,N,11613.0751315,E,4,45,0.0,66.590,M,-8.437,M,0.0,0000*70
$GNGGA,064127.67,4012.6110952,N,11613.0745474,E,4,45,0.0,66.587,M,-8.437,M,0.0,0000*7A
$GNGGA,064128.67,4012.6128081,N,11613.0736221,E,4,45,0.0,66.572,M,-8.437,M,0.0,0000*71
$GNGGA,064129.67,4012.6150675,N,11613.0724014,E,4,45,0.0,66.583,M,-8.437,M,0.0,0000*7B
$GNGGA,064130.68,4012.6179050,N,11613.0708819,E,4,44,0.0,66.572,M,-8.437,M,0.0,0000*72
$GNGGA,064131.68,4012.6212187,N,11613.0690944,E,4,42,0.0,66.566,M,-8.437,M,0.0,0000*7C
$GNGGA,064132.68,4012.6246685,N,11613.0671981,E,4,42,0.0,66.513,M,-8.437,M,0.0,0000*7F
$GNGGA,064133.69,4012.6283399,N,11613.0651449,E,4,41,0.0,66.507,M,-8.437,M,0.0,0000*73
$GNGGA,064134.69,4012.6322654,N,11613.0629690,E,4,41,0.0,66.512,M,-8.437,M,0.0,0000*77
$GNGGA,064135.69,4012.6363654,N,11613.0606906,E,4,42,0.0,66.539,M,-8.437,M,0.0,0000*74
$GNGGA,064136.70,4012.6405723,N,11613.0583118,E,4,42,0.0,66.539,M,-8.437,M,0.0,0000*70
$GNGGA,064137.70,4012.6450371,N,11613.0556602,E,4,42,0.0,66.571,M,-8.437,M,0.0,0000*7A
$GNGGA,064138.70,4012.6496786,N,11613.0527420,E,4,40,0.0,66.618,M,-8.437,M,0.0,0000*79
$GNGGA,064139.70,4012.6545179,N,11613.0496373,E,4,42,0.0,66.724,M,-8.437,M,0.0,0000*77
$GNGGA,064140.71,4012.6593857,N,11613.0464698,E,4,41,0.0,66.818,M,-8.438,M,0.0,0000*77
$GNGGA,064141.71,4012.6643120,N,11613.0432568,E,4,39,0.0,66.851,M,-8.438,M,0.0,0000*7C
$GNGGA,064142.71,4012.6690679,N,11613.0401638,E,4,39,0.0,66.874,M,-8.438,M,0.0,0000*7B
$GNGGA,064143.71,4012.6736957,N,11613.0371992,E,4,37,0.0,66.883,M,-8.438,M,0.0,0000*7D
$GNGGA,064144.72,4012.6783481,N,11613.0342349,E,4,37,0.0,66.878,M,-8.438,M,0.0,0000*79
$GNGGA,064145.72,4012.6830546,N,11613.0311380,E,4,38,0.0,66.907,M,-8.438,M,0.0,0000*70
$GNGGA,064146.72,4012.6879468,N,11613.0279226,E,4,37,0.0,66.944,M,-8.438,M,0.0,0000*79
$GNGGA,064147.73,4012.6931803,N,11613.0246332,E,4,37,0.0,66.914,M,-8.438,M,0.0,0000*78
$GNGGA,064148.73,4012.6987044,N,11613.0212778,E,4,36,0.0,66.775,M,-8.438,M,0.0,0000*72
$GNGGA,064149.73,4012.7045699,N,11613.0178275,E,4,38,0.0,66.780,M,-8.438,M,0.0,0000*70
$GNGGA,064150.73,4012.7107278,N,11613.0142210,E,4,37,0.0,66.775,M,-8.438,M,0.0,0000*7B
$GNGGA,064151.74,4012.7169344,N,11613.0106405,E,4,40,0.0,66.777,M,-8.438,M,0.0,0000*7B
$GNGGA,064152.74,4012.7233388,N,11613.0069922,E,4,38,0.0,66.777,M,-8.438,M,0.0,0000*7B
$GNGGA,064153.74,4012.7297357,N,11613.0032978,E,4,38,0.0,66.817,M,-8.438,M,0.0,0000*7E
$GNGGA,064154.75,4012.7361136,N,11612.9996072,E,4,38,0.0,66.896,M,-8.438,M,0.0,0000*70
$GNGGA,064155.75,4012.7424327,N,11612.9959187,E,4,39,0.0,66.971,M,-8.438,M,0.0,0000*74
$GNGGA,064156.75,4012.7485846,N,11612.9922823,E,4,44,0.0,67.045,M,-8.438,M,0.0,0000*7E
$GNGGA,064157.75,4012.7547840,N,11612.9885736,E,4,44,0.0,67.111,M,-8.439,M,0.0,0000*70
$GNGGA,064158.76,4012.7613228,N,11612.9845967,E,4,44,0.0,67.193,M,-8.439,M,0.0,0000*76
$GNGGA,064159.76,4012.7683705,N,11612.9802753,E,4,46,0.0,67.280,M,-8.439,M,0.0,0000*7D
$GNGGA,064200.76,4012.7760514,N,11612.9755002,E,4,44,0.0,67.379,M,-8.439,M,0.0,0000*77
$GNGGA,064201.77,4012.7841788,N,11612.9703516,E,4,45,0.0,67.481,M,-8.439,M,0.0,0000*7E
$GNGGA,064202.77,4012.7928172,N,11612.9648029,E,4,46,0.0,67.609,M,-8.439,M,0.0,0000*76
$GNGGA,064203.77,4012.8020201,N,11612.9587945,E,4,46,0.0,67.730,M,-8.439,M,0.0,0000*76
$GNGGA,064204.77,4012.8114775,N,11612.9525138,E,4,43,0.0,67.824,M,-8.439,M,0.0,0000*74
$GNGGA,064205.78,4012.8208142,N,11612.9462696,E,4,44,0.0,67.949,M,-8.439,M,0.0,0000*7A
$GNGGA,064206.78,4012.8298224,N,11612.9402041,E,4,42,0.0,68.044,M,-8.439,M,0.0,0000*74
$GNGGA,064207.78,4012.8386685,N,11612.9342890,E,4,47,0.0,68.126,M,-8.440,M,0.0,0000*7D
$GNGGA,064208.78,4012.8472474,N,11612.9286237,E,4,45,0.0,68.216,M,-8.440,M,0.0,0000*7E
$GNGGA,064209.79,4012.8555992,N,11612.9231059,E,4,46,0.0,68.321,M,-8.440,M,0.0,0000*7F
$GNGGA,064210.79,4012.8636235,N,11612.9178043,E,4,44,0.0,68.393,M,-8.440,M,0.0,0000*79
$GNGGA,064211.79,4012.8712646,N,11612.9127402,E,4,45,0.0,68.477,M,-8.440,M,0.0,0000*78
$GNGGA,064212.80,4012.8787222,N,11612.9078089,E,4,46,0.0,68.544,M,-8.440,M,0.0,0000*79
$GNGGA,064213.80,4012.8860661,N,11612.9029453,E,4,47,0.0,68.637,M,-8.440,M,0.0,0000*7C
$GNGGA,064214.80,4012.8934336,N,11612.8980243,E,4,45,0.0,68.728,M,-8.440,M,0.0,0000*7D
$GNGGA,064215.80,4012.9007608,N,11612.8931071,E,4,45,0.0,68.810,M,-8.440,M,0.0,0000*71
$GNGGA,064216.81,4012.9080895,N,11612.8881804,E,4,44,0.0,68.870,M,-8.440,M,0.0,0000*71
$GNGGA,064217.81,4012.9154001,N,11612.8831567,E,4,44,0.0,68.934,M,-8.441,M,0.0,0000*7E
$GNGGA,064218.81,4012.9225648,N,11612.8781069,E,4,47,0.0,68.982,M,-8.441,M,0.0,0000*7E
$GNGGA,064219.82,4012.9297657,N,11612.8730187,E,4,45,0.0,69.037,M,-8.441,M,0.0,0000*74
$GNGGA,064220.82,4012.9370115,N,11612.8678793,E,4,44,0.0,69.095,M,-8.441,M,0.0,0000*70
$GNGGA,064221.82,4012.9443318,N,11612.8626519,E,4,44,0.0,69.152,M,-8.441,M,0.0,0000*78
$GNGGA,064222.83,4012.9515385,N,11612.8574796,E,4,42,0.0,69.204,M,-8.441,M,0.0,0000*7B
$GNGGA,064223.83,4012.9586138,N,11612.8523702,E,4,44,0.0,69.245,M,-8.441,M,0.0,0000*78
$GNGGA,064224.83,4012.9655352,N,11612.8473698,E,4,44,0.0,69.297,M,-8.441,M,0.0,0000*75
$GNGGA,064225.83,4012.9724058,N,11612.8424094,E,4,42,0.0,69.334,M,-8.441,M,0.0,0000*7C
$GNGGA,064226.84,4012.9791303,N,11612.8375691,E,4,43,0.0,69.375,M,-8.441,M,0.0,0000*7F
$GNGGA,064227.84,4012.9858556,N,11612.8326709,E,4,45,0.0,69.435,M,-8.442,M,0.0,0000*72
$GNGGA,064228.84,4012.9926905,N,11612.8276829,E,4,45,0.0,69.484,M,-8.442,M,0.0,0000*7C
$GNGGA,064229.84,4012.9995333,N,11612.8227515,E,4,45,0.0,69.521,M,-8.442,M,0.0,0000*72
$GNGGA,064230.85,4013.0062543,N,11612.8179397,E,4,45,0.0,69.564,M,-8.442,M,0.0,0000*76
$GNGGA,064231.85,4013.0129488,N,11612.8131640,E,4,46,0.0,69.603,M,-8.442,M,0.0,0000*7D
$GNGGA,064232.85,4013.0196281,N,11612.8084050,E,4,42,0.0,69.644,M,-8.442,M,0.0,0000*7A
$GNGGA,064233.86,4013.0264715,N,11612.8035402,E,4,41,0.0,69.703,M,-8.442,M,0.0,0000*76
$GNGGA,064234.86,4013.0333303,N,11612.7987337,E,4,43,0.0,69.716,M,-8.442,M,0.0,0000*79
$GNGGA,064235.86,4013.0402811,N,11612.7939983,E,4,47,0.0,69.746,M,-8.442,M,0.0,0000*74
$GNGGA,064236.86,4013.0474423,N,11612.7891818,E,4,45,0.0,69.762,M,-8.442,M,0.0,0000*7F
$GNGGA,064237.87,4013.0548022,N,11612.7842819,E,4,46,0.0,69.760,M,-8.443,M,0.0,0000*7B
$GNGGA,064238.87,4013.0621337,N,11612.7794975,E,4,47,0.0,69.800,M,-8.443,M,0.0,0000*78
$GNGGA,064239.87,4013.0693818,N,11612.7748593,E,4,45,0.0,69.829,M,-8.443,M,0.0,0000*7A
$GNGGA,064240.88,4013.0763666,N,11612.7704109,E,4,45,0.0,69.866,M,-8.443,M,0.0,0000*76
$GNGGA,064241.88,4013.0829728,N,11612.7661834,E,4,10,0.0,70.003,M,-8.443,M,0.0,0000*7B
$GNGGA,064242.88,4013.0894612,N,11612.7621527,E,4,34,0.0,69.896,M,-8.443,M,0.0,0000*77
$GNGGA,064243.88,4013.0961227,N,11612.7586168,E,4,46,0.0,69.953,M,-8.443,M,0.0,0000*73
$GNGGA,064244.89,4013.1026569,N,11612.7557656,E,4,32,0.0,69.965,M,-8.443,M,0.0,0000*73
$GNGGA,064245.89,4013.1090438,N,11612.7534083,E,4,43,0.0,69.998,M,-8.443,M,0.0,0000*75
$GNGGA,064246.89,4013.1147731,N,11612.7511589,E,4,43,0.0,70.027,M,-8.443,M,0.0,0000*7A
$GNGGA,064247.90,4013.1198998,N,11612.7487597,E,4,42,0.0,70.047,M,-8.443,M,0.0,0000*7A
$GNGGA,064248.90,4013.1243583,N,11612.7461396,E,4,39,0.0,70.095,M,-8.443,M,0.0,0000*7A
$GNGGA,064249.90,4013.1280259,N,11612.7436589,E,4,40,0.0,70.232,M,-8.443,M,0.0,0000*7F
$GNGGA,064250.90,4013.1308659,N,11612.7417396,E,4,34,0.0,70.205,M,-8.443,M,0.0,0000*7E
$GNGGA,064251.91,4013.1333267,N,11612.7400683,E,4,29,0.0,70.222,M,-8.443,M,0.0,0000*71
$GNGGA,064252.91,4013.1359076,N,11612.7383212,E,4,31,0.0,70.191,M,-8.443,M,0.0,0000*7E
$GNGGA,064253.91,4013.1388495,N,11612.7363122,E,4,35,0.0,70.182,M,-8.443,M,0.0,0000*72
$GNGGA,064254.91,4013.1418846,N,11612.7342227,E,4,35,0.0,70.216,M,-8.443,M,0.0,0000*72
$GNGGA,064255.92,4013.1448920,N,11612.7320634,E,4,40,0.0,70.253,M,-8.443,M,0.0,0000*75
$GNGGA,064256.92,4013.1477048,N,11612.7299074,E,4,46,0.0,70.248,M,-8.443,M,0.0,0000*70
$GNGGA,064257.92,4013.1505683,N,11612.7273590,E,4,45,0.0,70.244,M,-8.444,M,0.0,0000*77
$GNGGA,064258.93,4013.1532929,N,11612.7244523,E,4,46,0.0,70.349,M,-8.444,M,0.0,0000*71
$GNGGA,064259.93,4013.1560208,N,11612.7211525,E,4,47,0.0,70.441,M,-8.444,M,0.0,0000*77
$GNGGA,064300.93,4013.1590696,N,11612.7174619,E,4,45,0.0,70.553,M,-8.444,M,0.0,0000*7A
$GNGGA,064301.93,4013.1628253,N,11612.7137160,E,4,45,0.0,70.681,M,-8.444,M,0.0,0000*74
$GNGGA,064302.94,4013.1673218,N,11612.7100227,E,4,44,0.0,70.871,M,-8.444,M,0.0,0000*75
$GNGGA,064303.94,4013.1724511,N,11612.7062081,E,4,44,0.0,71.212,M,-8.444,M,0.0,0000*7C
$GNGGA,064304.94,4013.1775505,N,11612.7025756,E,4,44,0.0,71.557,M,-8.444,M,0.0,0000*72
$GNGGA,064305.95,4013.1825511,N,11612.6990859,E,4,44,0.0,71.929,M,-8.444,M,0.0,0000*7E
$GNGGA,064306.95,4013.1867606,N,11612.6961925,E,4,44,0.0,72.285,M,-8.444,M,0.0,0000*74
$GNGGA,064307.95,4013.1900462,N,11612.6939239,E,4,45,0.0,72.559,M,-8.444,M,0.0,0000*79
$GNGGA,064308.96,4013.1929811,N,11612.6918428,E,4,45,0.0,72.782,M,-8.444,M,0.0,0000*77
$GNGGA,064309.96,4013.1956995,N,11612.6898692,E,4,47,0.0,72.994,M,-8.444,M,0.0,0000*72
$GNGGA,064310.96,4013.1985595,N,11612.6877371,E,4,45,0.0,73.200,M,-8.444,M,0.0,0000*74
$GNGGA,064311.96,4013.2015589,N,11612.6855040,E,4,47,0.0,73.426,M,-8.444,M,0.0,0000*7A
$GNGGA,064312.97,4013.2046159,N,11612.6832202,E,4,47,0.0,73.686,M,-8.444,M,0.0,0000*7A
$GNGGA,064313.97,4013.2074687,N,11612.6810889,E,4,47,0.0,73.917,M,-8.445,M,0.0,0000*71
$GNGGA,064314.97,4013.2105745,N,11612.6787741,E,4,47,0.0,74.166,M,-8.445,M,0.0,0000*7D
$GNGGA,064315.97,4013.2139685,N,11612.6762898,E,4,46,0.0,74.438,M,-8.445,M,0.0,0000*71
$GNGGA,064316.98,4013.2170030,N,11612.6740859,E,4,46,0.0,74.681,M,-8.445,M,0.0,0000*75
$GNGGA,064317.98,4013.2194986,N,11612.6723099,E,4,47,0.0,74.861,M,-8.445,M,0.0,0000*7A
$GNGGA,064318.98,4013.2217102,N,11612.6708804,E,4,46,0.0,75.017,M,-8.445,M,0.0,0000*75
$GNGGA,064319.99,4013.2238829,N,11612.6696740,E,4,45,0.0,75.125,M,-8.445,M,0.0,0000*72
$GNGGA,064320.99,4013.2260022,N,11612.6687650,E,4,45,0.0,75.206,M,-8.445,M,0.0,0000*74
$GNGGA,064321.99,4013.2277171,N,11612.6682312,E,4,47,0.0,75.251,M,-8.445,M,0.0,0000*72
$GNGGA,064322.99,4013.2288819,N,11612.6679645,E,4,47,0.0,75.270,M,-8.445,M,0.0,0000*76
$GNGGA,064324.00,4013.2297882,N,11612.6678207,E,4,48,0.0,75.297,M,-8.445,M,0.0,0000*79
$GNGGA,064325.00,4013.2306902,N,11612.6677229,E,4,48,0.0,75.310,M,-8.445,M,0.0,0000*75
$GNGGA,064326.00,4013.2315607,N,11612.6676798,E,4,48,0.0,75.322,M,-8.445,M,0.0,0000*71
$GNGGA,064327.01,4013.2326233,N,11612.6676839,E,4,48,0.0,75.339,M,-8.445,M,0.0,0000*7C
$GNGGA,064328.01,4013.2336888,N,11612.6677382,E,4,48,0.0,75.345,M,-8.445,M,0.0,0000*79
$GNGGA,064329.01,4013.2347289,N,11612.6678375,E,4,48,0.0,75.355,M,-8.445,M,0.0,0000*73
$GNGGA,064330.02,4013.2362639,N,11612.6680454,E,4,48,0.0,75.389,M,-8.445,M,0.0,0000*72
$GNGGA,064331.02,4013.2380948,N,11612.6683678,E,4,48,0.0,75.450,M,-8.445,M,0.0,0000*7A
$GNGGA,064332.02,4013.2397238,N,11612.6687412,E,4,48,0.0,75.504,M,-8.445,M,0.0,0000*79
$GNGGA,064333.02,4013.2411134,N,11612.6691440,E,4,48,0.0,75.570,M,-8.445,M,0.0,0000*7D
$GNGGA,064334.03,4013.2423789,N,11612.6696088,E,4,48,0.0,75.623,M,-8.445,M,0.0,0000*78
$GNGGA,064335.03,4013.2437981,N,11612.6702896,E,4,48,0.0,75.665,M,-8.445,M,0.0,0000*73
$GNGGA,064336.03,4013.2454720,N,11612.6713025,E,4,48,0.0,75.723,M,-8.445,M,0.0,0000*73
$GNGGA,064337.03,4013.2470876,N,11612.6724848,E,4,48,0.0,75.726,M,-8.444,M,0.0,0000*7B
$GNGGA,064338.04,4013.2485996,N,11612.6737661,E,4,48,0.0,75.742,M,-8.444,M,0.0,0000*73
$GNGGA,064339.04,4013.2505067,N,11612.6755244,E,4,47,0.0,75.772,M,-8.444,M,0.0,0000*77
$GNGGA,064340.04,4013.2530156,N,11612.6776785,E,4,47,0.0,75.794,M,-8.444,M,0.0,0000*7D
$GNGGA,064341.05,4013.2557944,N,11612.6798307,E,4,47,0.0,75.819,M,-8.444,M,0.0,0000*73
$GNGGA,064342.05,4013.2586662,N,11612.6820192,E,4,48,0.0,75.852,M,-8.444,M,0.0,0000*75
$GNGGA,064343.05,4013.2619059,N,11612.6843124,E,4,48,0.0,75.846,M,-8.444,M,0.0,0000*72
$GNGGA,064344.05,4013.2655686,N,11612.6867064,E,4,47,0.0,75.843,M,-8.444,M,0.0,0000*70
$GNGGA,064345.06,4013.2693273,N,11612.6889853,E,4,47,0.0,75.819,M,-8.444,M,0.0,0000*75
$GNGGA,064346.06,4013.2727382,N,11612.6908729,E,4,47,0.0,75.832,M,-8.444,M,0.0,0000*74
$GNGGA,064347.06,4013.2755907,N,11612.6922448,E,4,47,0.0,75.842,M,-8.444,M,0.0,0000*7C
$GNGGA,064348.07,4013.2782507,N,11612.6933047,E,4,47,0.0,75.873,M,-8.444,M,0.0,0000*7D
$GNGGA,064349.07,4013.2809617,N,11612.6941684,E,4,46,0.0,75.898,M,-8.443,M,0.0,0000*7D
$GNGGA,064350.07,4013.2842709,N,11612.6949302,E,4,46,0.0,75.918,M,-8.443,M,0.0,0000*7E
$GNGGA,064351.07,4013.2879277,N,11612.6954383,E,4,46,0.0,75.932,M,-8.443,M,0.0,0000*76
$GNGGA,064352.08,4013.2915937,N,11612.6956614,E,4,46,0.0,75.915,M,-8.443,M,0.0,0000*72
$GNGGA,064353.08,4013.2951214,N,11612.6956104,E,4,46,0.0,75.963,M,-8.443,M,0.0,0000*7E
$GNGGA,064354.08,4013.2985456,N,11612.6952398,E,4,47,0.0,75.962,M,-8.443,M,0.0,0000*73
$GNGGA,064355.09,4013.3023922,N,11612.6944232,E,4,47,0.0,76.005,M,-8.443,M,0.0,0000*74
$GNGGA,064356.09,4013.3063645,N,11612.6932046,E,4,47,0.0,76.035,M,-8.443,M,0.0,0000*7E
$GNGGA,064357.09,4013.3106075,N,11612.6916734,E,4,46,0.0,76.000,M,-8.443,M,0.0,0000*7B
$GNGGA,064358.09,4013.3155306,N,11612.6898568,E,4,46,0.0,76.028,M,-8.443,M,0.0,0000*73
$GNGGA,064359.10,4013.3210905,N,11612.6878078,E,4,47,0.0,76.097,M,-8.443,M,0.0,0000*7E
$GNGGA,064400.10,4013.3268294,N,11612.6855229,E,4,47,0.0,76.138,M,-8.443,M,0.0,0000*74
$GNGGA,064401.10,4013.3323262,N,11612.6829896,E,4,47,0.0,76.176,M,-8.443,M,0.0,0000*7D
$GNGGA,064402.11,4013.3374755,N,11612.6797542,E,4,47,0.0,76.200,M,-8.443,M,0.0,0000*70
$GNGGA,064403.11,4013.3422940,N,11612.6758408,E,4,47,0.0,76.196,M,-8.444,M,0.0,0000*78
$GNGGA,064404.11,4013.3466293,N,11612.6713084,E,4,47,0.0,76.265,M,-8.444,M,0.0,0000*7A
$GNGGA,064405.11,4013.3503586,N,11612.6663109,E,4,47,0.0,76.319,M,-8.444,M,0.0,0000*72
$GNGGA,064406.12,4013.3535844,N,11612.6610099,E,4,47,0.0,76.351,M,-8.444,M,0.0,0000*74
$GNGGA,064407.12,4013.3563766,N,11612.6553187,E,4,47,0.0,76.375,M,-8.444,M,0.0,0000*75
$GNGGA,064408.12,4013.3587128,N,11612.6492110,E,4,47,0.0,76.356,M,-8.444,M,0.0,0000*7F
$GNGGA,064409.13,4013.3605647,N,11612.6426648,E,4,47,0.0,76.346,M,-8.444,M,0.0,0000*7C
$GNGGA,064410.13,4013.3618746,N,11612.6358343,E,4,47,0.0,76.389,M,-8.445,M,0.0,0000*7A
$GNGGA,064411.13,4013.3625734,N,11612.6289579,E,4,48,0.0,76.398,M,-8.445,M,0.0,0000*7D
$GNGGA,064412.13,4013.3627022,N,11612.6220174,E,4,48,0.0,76.350,M,-8.445,M,0.0,0000*72
$GNGGA,064413.14,4013.3622348,N,11612.6146213,E,4,47,0.0,76.245,M,-8.445,M,0.0,0000*75
$GNGGA,064414.14,4013.3610526,N,11612.6070772,E,4,48,0.0,76.251,M,-8.446,M,0.0,0000*72
$GNGGA,064415.14,4013.3595135,N,11612.6005730,E,4,48,0.0,76.224,M,-8.446,M,0.0,0000*7D
$GNGGA,064416.15,4013.3579518,N,11612.5953719,E,4,47,0.0,76.227,M,-8.446,M,0.0,0000*78
$GNGGA,064417.15,4013.3563079,N,11612.5910908,E,4,46,0.0,76.202,M,-8.446,M,0.0,0000*7F
$GNGGA,064418.15,4013.3548085,N,11612.5878246,E,4,47,0.0,76.163,M,-8.446,M,0.0,0000*71
$GNGGA,064419.15,4013.3534956,N,11612.5851023,E,4,46,0.0,76.148,M,-8.446,M,0.0,0000*7E
$GNGGA,064420.16,4013.3523343,N,11612.5826407,E,4,46,0.0,76.130,M,-8.447,M,0.0,0000*73
$GNGGA,064421.16,4013.3513039,N,11612.5804341,E,4,45,0.0,76.132,M,-8.447,M,0.0,0000*7B
$GNGGA,064422.16,4013.3502596,N,11612.5781966,E,4,46,0.0,76.135,M,-8.447,M,0.0,0000*71
$GNGGA,064423.17,4013.3488324,N,11612.5753841,E,4,46,0.0,76.133,M,-8.447,M,0.0,0000*70
$GNGGA,064424.17,4013.3468917,N,11612.5720419,E,4,46,0.0,76.138,M,-8.447,M,0.0,0000*7D
$GNGGA,064425.17,4013.3443456,N,11612.5678671,E,4,46,0.0,76.148,M,-8.447,M,0.0,0000*7A
$GNGGA,064426.17,4013.3415099,N,11612.5628324,E,4,45,0.0,76.104,M,-8.447,M,0.0,0000*76
$GNGGA,064427.18,4013.3388435,N,11612.5569095,E,4,46,0.0,76.048,M,-8.447,M,0.0,0000*7C
$GNGGA,064428.18,4013.3366634,N,11612.5501455,E,4,45,0.0,75.881,M,-8.448,M,0.0,0000*74
$GNGGA,064429.18,4013.3353642,N,11612.5428807,E,4,47,0.0,75.853,M,-8.448,M,0.0,0000*7E
$GNGGA,064430.18,4013.3349526,N,11612.5350872,E,4,46,0.0,75.567,M,-8.448,M,0.0,0000*7D
$GNGGA,064431.19,4013.3355542,N,11612.5268135,E,4,46,0.0,75.130,M,-8.448,M,0.0,0000*74
$GNGGA,064432.19,4013.3374549,N,11612.5182052,E,4,47,0.0,74.732,M,-8.449,M,0.0,0000*7D
$GNGGA,064433.19,4013.3403091,N,11612.5095521,E,4,48,0.0,74.254,M,-8.449,M,0.0,0000*77
$GNGGA,064434.20,4013.3434767,N,11612.5005561,E,4,48,0.0,73.831,M,-8.449,M,0.0,0000*73
$GNGGA,064435.20,4013.3468076,N,11612.4913772,E,4,48,0.0,73.392,M,-8.450,M,0.0,0000*79
$GNGGA,064436.20,4013.3501863,N,11612.4823644,E,4,48,0.0,72.962,M,-8.450,M,0.0,0000*7A
$GNGGA,064437.21,4013.3537681,N,11612.4731764,E,4,46,0.0,72.521,M,-8.450,M,0.0,0000*77
$GNGGA,064438.21,4013.3573969,N,11612.4640028,E,4,45,0.0,72.246,M,-8.450,M,0.0,0000*7C
$GNGGA,064439.21,4013.3610932,N,11612.4546094,E,4,46,0.0,72.255,M,-8.451,M,0.0,0000*77
$GNGGA,064440.21,4013.3645174,N,11612.4452397,E,4,43,0.0,72.278,M,-8.451,M,0.0,0000*7D
$GNGGA,064441.22,4013.3675963,N,11612.4358751,E,4,46,0.0,72.760,M,-8.451,M,0.0,0000*78
$GNGGA,064442.22,4013.3702777,N,11612.4266097,E,4,43,0.0,73.226,M,-8.451,M,0.0,0000*73
$GNGGA,064443.22,4013.3727065,N,11612.4173943,E,4,44,0.0,73.657,M,-8.452,M,0.0,0000*70
$GNGGA,064444.22,4013.3749074,N,11612.4084333,E,4,43,0.0,74.013,M,-8.452,M,0.0,0000*7D
$GNGGA,064445.23,4013.3769639,N,11612.3994713,E,4,43,0.0,74.283,M,-8.452,M,0.0,0000*72
$GNGGA,064446.23,4013.3789440,N,11612.3902127,E,4,43,0.0,74.546,M,-8.453,M,0.0,0000*72
$GNGGA,064447.23,4013.3808182,N,11612.3810183,E,4,45,0.0,74.739,M,-8.453,M,0.0,0000*7E
$GNGGA,064448.24,4013.3826017,N,11612.3719369,E,4,45,0.0,74.994,M,-8.453,M,0.0,0000*7E
$GNGGA,064449.24,4013.3843412,N,11612.3630369,E,4,45,0.0,75.255,M,-8.453,M,0.0,0000*70
$GNGGA,064450.24,4013.3861292,N,11612.3541420,E,4,45,0.0,75.465,M,-8.454,M,0.0,0000*7B
$GNGGA,064451.24,4013.3879144,N,11612.3452003,E,4,44,0.0,75.603,M,-8.454,M,0.0,0000*7E
$GNGGA,064452.25,4013.3897385,N,11612.3358766,E,4,42,0.0,75.748,M,-8.454,M,0.0,0000*72
$GNGGA,064453.25,4013.3915768,N,11612.3263255,E,4,43,0.0,75.805,M,-8.455,M,0.0,0000*75
$GNGGA,064454.25,4013.3934124,N,11612.3164452,E,4,44,0.0,75.837,M,-8.455,M,0.0,0000*7C
$GNGGA,064455.26,4013.3952027,N,11612.3063710,E,4,46,0.0,75.903,M,-8.455,M,0.0,0000*7B
$GNGGA,064456.26,4013.3969604,N,11612.2960884,E,4,44,0.0,75.883,M,-8.456,M,0.0,0000*76
$GNGGA,064457.26,4013.3986341,N,11612.2857099,E,4,44,0.0,75.911,M,-8.456,M,0.0,0000*79
$GNGGA,064458.27,4013.4002922,N,11612.2750129,E,4,35,0.0,75.958,M,-8.456,M,0.0,0000*73
$GNGGA,064459.27,4013.4019634,N,11612.2640062,E,4,35,0.0,75.960,M,-8.457,M,0.0,0000*74
$GNGGA,064500.27,4013.4035514,N,11612.2529444,E,4,11,0.0,76.112,M,-8.457,M,0.0,0000*72
$GNGGA,064501.27,4013.4050478,N,11612.2417208,E,4,29,0.0,75.865,M,-8.457,M,0.0,0000*78
$GNGGA,064502.28,4013.4064090,N,11612.2310100,E,4,26,0.0,75.875,M,-8.458,M,0.0,0000*7B
$GNGGA,064503.28,4013.4077310,N,11612.2203705,E,4,41,0.0,76.052,M,-8.458,M,0.0,0000*7C
